{
    "type": "FeatureCollection",
    "name": "City Points",
    "crs": { "type": "name", "properties": { "name": "urn:ogc:def:crs:OGC:1.3:CRS84" } },
    "features": [
    { "type": "Feature", "properties": { "id": null, "name": "High Lady’s Palace", "type": "government", "info": null }, "geometry": { "type": "Point", "coordinates": [ 96.620091524370565, 23.546766397220424 ] } },
    { "type": "Feature", "properties": { "id": null, "name": "Star Court", "type": "government", "info": null }, "geometry": { "type": "Point", "coordinates": [ 91.856667600154353, 12.383254944057317 ] } },
    { "type": "Feature", "properties": { "id": null, "name": "Vault of the Sages", "type": "conclave_of_silverymoon", "info": null }, "geometry": { "type": "Point", "coordinates": [ 33.930827048084822, -31.70878827158845 ] } },
    { "type": "Feature", "properties": { "id": null, "name": "Silverguard Isle", "type": "government", "info": null }, "geometry": { "type": "Point", "coordinates": [ 80.68566495039164, -30.440496116997142 ] } },
    { "type": "Feature", "properties": { "id": null, "name": "Map House", "type": "conclave_of_silverymoon", "info": null }, "geometry": { "type": "Point", "coordinates": [ 53.676684882860862, 2.529725783077811 ] } },
    { "type": "Feature", "properties": { "id": null, "name": "Sundabar's Gate", "type": "city_gate", "info": null }, "geometry": { "type": "Point", "coordinates": [ 92.757280426030235, -4.693090554933676 ] } },
    { "type": "Feature", "properties": { "id": null, "name": "Main Gate", "type": "city_gate", "info": null }, "geometry": { "type": "Point", "coordinates": [ 19.196335459734406, -2.414463972108619 ] } },
    { "type": "Feature", "properties": { "id": null, "name": "Moon Bridge", "type": "bridges", "info": null }, "geometry": { "type": "Point", "coordinates": [ 21.388976133773618, -11.056047805086678 ] } },
    { "type": "Feature", "properties": { "id": null, "name": "Lady's College", "type": "conclave_of_silverymoon", "info": null }, "geometry": { "type": "Point", "coordinates": [ 14.553096385298419, -32.101098980423771 ] } },
    { "type": "Feature", "properties": { "id": null, "name": "Arkhen's Invocatorium", "type": "conclave_of_silverymoon", "info": null }, "geometry": { "type": "Point", "coordinates": [ 11.350121283025452, -47.557066084680557 ] } },
    { "type": "Feature", "properties": { "id": null, "name": "Mulgate", "type": "city_gate", "info": null }, "geometry": { "type": "Point", "coordinates": [ 36.243041876529404, -58.262311728519066 ] } },
    { "type": "Feature", "properties": { "id": null, "name": "Blacklar Gate", "type": "city_gate", "info": null }, "geometry": { "type": "Point", "coordinates": [ -25.795791312462292, -54.564917650727459 ] } },
    { "type": "Feature", "properties": { "id": null, "name": "Moorgate", "type": "city_gate", "info": null }, "geometry": { "type": "Point", "coordinates": [ -56.234803022653679, 21.231660944000467 ] } },
    { "type": "Feature", "properties": { "id": null, "name": "Hunter's Gate", "type": "city_gate", "info": null }, "geometry": { "type": "Point", "coordinates": [ 41.273217540501705, 68.093981232289465 ] } },
    { "type": "Feature", "properties": { "id": null, "name": "College of Fochlucan", "type": "education", "info": null }, "geometry": { "type": "Point", "coordinates": [ 54.601033402308666, 65.256446242356375 ] } },
    { "type": "Feature", "properties": { "id": null, "name": "The House Invincible", "type": "religion", "info": null }, "geometry": { "type": "Point", "coordinates": [ 57.137617711491281, 55.239087868804688 ] } },
    { "type": "Feature", "properties": { "id": null, "name": "Rhyester's Matins", "type": "religion", "info": null }, "geometry": { "type": "Point", "coordinates": [ 73.64691219837475, 52.487538787657464 ] } },
    { "type": "Feature", "properties": { "id": null, "name": "Sundabar Commons", "type": "commerce", "info": null }, "geometry": { "type": "Point", "coordinates": [ 84.524129659784961, -1.769569656214728 ] } },
    { "type": "Feature", "properties": { "id": null, "name": "Trading Coaster", "type": "store", "info": null }, "geometry": { "type": "Point", "coordinates": [ 72.056172885836517, 0.079127382681097 ] } },
    { "type": "Feature", "properties": { "id": null, "name": "Silverglen", "type": "forest", "info": null }, "geometry": { "type": "Point", "coordinates": [ 73.947862879125225, 23.940217070754883 ] } },
    { "type": "Feature", "properties": { "id": null, "name": "The Bright Blade Brandished", "type": "tavern", "info": "Located in Northbank, on Sunset Lane in the westernmost angle of the Wallrun. All are welcome at this friendly alehouse, which consists of two floors of rustic charm, with curtained booths. Wizards down on their luck can earn 1 sp per mage hand spell cas" }, "geometry": { "type": "Point", "coordinates": [ -64.446457311702488, -4.736083509326544 ] } },
    { "type": "Feature", "properties": { "id": null, "name": "Golden Oak", "type": "inn", "info": null }, "geometry": { "type": "Point", "coordinates": [ -20.378679058953718, 20.973703217642992 ] } },
    { "type": "Feature", "properties": { "id": null, "name": "The Dancing Goat", "type": "tavern", "info": "Renowned for raucous revelry at all hours. It is a site of endless, enthusiastic dancing and flirting, with a remarkable cellar boasting hundreds of vintages. The place sometimes attracts the attentions of pickpockets and other professionals." }, "geometry": { "type": "Point", "coordinates": [ 20.109935740584181, 5.560729067779157 ] } },
    { "type": "Feature", "properties": { "id": null, "name": "The Hammer and the Helm", "type": "tavern", "info": "Found on Highaxe Lane in Northbank, this cheerful barn of dwarf revelry also welcomes trusted sword-companions. Roast fowl wings provide missiles when jests go bad, amid oceans of stout, Strongbeard cider." }, "geometry": { "type": "Point", "coordinates": [ -19.389841107916261, 42.835620526445702 ] } },
    { "type": "Feature", "properties": { "id": null, "name": "Helmer’s Wall", "type": "tavern", "info": "In Northbank, bridging Bowshot Ride at its meeting with the Old Wall, stands this former city gatehouse built of massive beams and rough stone walls. Helmer’s Wall boasts a superb wine cellar. It is quite popular with students of the various colleges, both scholarly and magical, who haunt these bare boards, alight with hope and dreams and pompous high-minded speeches. Such activity often makes for an entertaining evening, although the worst speakers are often pelted from their perches." }, "geometry": { "type": "Point", "coordinates": [ 7.018581127938333, 36.483411514890946 ] } },
    { "type": "Feature", "properties": { "id": null, "name": "Sorlar’s Smiling Satyr", "type": "tavern", "info": null }, "geometry": { "type": "Point", "coordinates": [ -5.169921442456108, -40.774927529196432 ] } },
    { "type": "Feature", "properties": { "id": null, "name": "The Stagstand", "type": "tavern", "info": null }, "geometry": { "type": "Point", "coordinates": [ 24.237259362305036, 45.70540023217356 ] } },
    { "type": "Feature", "properties": { "id": null, "name": "Wayward House", "type": "inn", "info": null }, "geometry": { "type": "Point", "coordinates": [ 5.454712411895631, 27.728971176631479 ] } },
    { "type": "Feature", "properties": { "id": null, "name": "Mielikki's Glade", "type": "religion", "info": "An open-air glade, a shrine, and the land sacred to the deity – Mielikki." }, "geometry": { "type": "Point", "coordinates": [ 45.123774018318286, -29.31596165365691 ] } },
    { "type": "Feature", "properties": { "id": null, "name": "Utrumm's Music Conservatory", "type": "conclave_of_silverymoon", "info": "The famed school of music in Silverymoon and a member institution of the Conclave of Silverymoon." }, "geometry": { "type": "Point", "coordinates": [ -30.022536141216534, -21.778759336647131 ] } }
    ]
    }
    